busstop_id,busstop,latitude,longitude
s1,EAST FORT,8.48322,76.9474
s2,OVERBRIDGE,8.48846,76.94744
s3,AYURVEDA COLLEGE,8.490969999999999,76.94709
s4,STATUE,8.496839999999999,76.94828000000001
s5,PALAYAM,8.50253,76.94937
s7,GENERAL HOSPITAL,8.4992,76.94296
s8,PATTOOR,8.4975,76.93706999999999
s9,PALLIMUKKU,8.49681,76.93342
s10,PETTAH JN,8.49512,76.92903000000001
s11,KALLUMOODU,8.49773,76.92582
s12,KALLUMOODU PALAM,8.49901,76.92423000000001
s13,KUDAVOOR,8.50117,76.92152
s14,MULLOOR,8.50332,76.91882
s15,ANAYARA,8.505410000000001,76.91620999999999
s16,LORDS JN,8.50718,76.91405
s17,ULAMKUZHI,8.508339999999999,76.91346999999999
s18,KIZHAKATHIL,8.50924,76.90984
s19,KIMS ROAD,8.5106,76.90911
s20,VENPALAVTTAM JN,8.51153,76.90746999999999
s21,VENPALAVTTAM TEMPLE,8.51126,76.90607
s22,WORLD MARKET,8.50997,76.90415
s23,VAZHAVILA,8.50838,76.90248000000001
s24,KARIKAKAM PALAM,8.50735,76.90585
s25,CHAMUNDI NAGR,8.50481,76.90862
s26,KARIKAKAM VAYANASALA,8.49901,76.91376
s29,SAPHALYAM,8.50283,76.95057
s30,LMS,8.5085,76.95222
s31,PMG,8.50887,76.94935
s32,PLAMOODU,8.51455,76.94549
s33,PATTOM,8.51879,76.9422
s34,PATTOM LIC,8.522910000000001,76.94057
s35,ST MARYS,8.526539999999999,76.93894
s36,KESAVADASAPURAM,8.53019,76.93868
s37,PARUTHIPARA,8.5358,76.94227
s38,PANAN VILA,8.53758,76.94165
s39,MAIN GATE,8.54226,76.94154
s40,KURISHADI,8.54628,76.94466
s41,STEP JN,8.54907,76.94272
s42,KOTTAMUGAL,8.55303,76.94301999999999
s43,KOVIL NAGAR,8.55585,76.94346999999999
s44,MANNANTHALA,8.561010000000001,76.94332
s45,PERIYAN KODE,8.567689999999999,76.94406
s46,ARUVIYODE,8.57109,76.94587
s47,MARUDHOOR,8.57294,76.94422
s48,THAZA CHITTAZA,8.57693,76.94323
s49,CHITTAZA,8.580739999999999,76.94569
s50,MUKKAMPLAMOODU,8.58497,76.947
s51,AMBALAM NAGAR,8.58483,76.94958000000001
s52,PALLIVILA,8.58743,76.94997
s53,VATTAPARA,8.59253,76.95286999999999
s54,VATTAPARA 1,8.59511,76.95631
s55,SHEEMALA MUKK,8.59527,76.95936999999999
s56,PUMB HOUSE,8.59817,76.96215
s57,CHENDI POORI,8.59859,76.9629
s58,CHIRAKIYANI,8.60264,76.96469
s59,THOTTU MUKKU,8.60522,76.96488000000001
s60,PARAYIL KADA,8.60588,76.96637
s61,TOWER JN,8.6066,76.96854
s62,MANGODE,8.60939,76.96898
s63,POOVATHOOR,8.61438,76.96902
s64,PATTALAM JN,8.61604,76.96788000000001
s65,BP NAGAR,8.61846,76.96646
s66,AMBALA NAGAR,8.62115,76.96651
s67,MG NAGAR,8.62456,76.96619
s68,SOCIETY NADA,8.626510000000001,76.96621999999999
s69,IRINJIYAM PADIKKUT,8.624310000000001,76.96892
s70,IRINJIYAM,8.62416,76.97035
s71,AISWARYA MUKK,8.62781,76.97129
s72,KAIRALI NAGAR,8.63084,76.96891
s76,NALANCHIRA COLLEGE JN,8.54248,76.94166
s77,NALANCHIRA  KURISADI,8.54624,76.94471
s78,NALANCHIRA STEP,8.548589999999999,76.94296999999999
s79,MANNANTHALA KOVILNADA,8.55643,76.94351999999999
s80,MANNAMTHALA,8.56104,76.94331
s81,PERIYANGODU,8.56756,76.94411
s82,ARUVIYODU,8.57075,76.94609
s83,MARUTHOOR,8.5721,76.94492
s84,KEEZHE CHITTAZHA,8.57675,76.94323
s85,CHITTAZHA,8.58073,76.94570999999999
s86,MUKKUM PALAMOODU,8.58486,76.94691999999999
s87,AMBALANAGAR,8.58478,76.94921
s88,LMS SCHOOL,8.59414,76.95003
s89,KANACODU,8.59615,76.94717
s90,16th STONE,8.60182,76.94638
s91,VETINADU MANDAPAM,8.60487,76.94283
s92,VETINADU,8.61373,76.93961
s93,PERUMKOOR,8.622710000000001,76.93804
s94,KANNYAKULANGARA,8.63002,76.93684
s95,VEMBAYAM,8.63729,76.93659
s96,GANDHI NAGAR,8.643469999999999,76.93997
s97,GANDHI NAGAR 1,8.64887,76.94194
s98,OZHIVUPARA,8.647219999999999,76.94459
s99,OZHUKUPARA,8.647780000000001,76.94731
s100,ET MUKKU,8.65105,76.94851
s101,THAMPURAN PARA,8.65397,76.94963
s102,VAZHA VILA POILA,8.658660000000001,76.95152
s103,MATHA PURAM,8.65832,76.95617
s104,KALLIKADU,8.65661,76.96248
s105,POTTAPARA,8.65105,76.96596
s106,ARASUMMOODU,8.65325,76.96994000000001
s107,MOONNAKUZHI,8.656830000000001,76.97189
s108,MANAKADU,8.47531,76.94764
s109,KAMALESWARAM,8.46809,76.9482
s110,KAMALESWARAM 2,8.464830000000001,76.94906
s111,VALIYAVEEDU LANE,8.464960000000001,76.94901
s112,KALLATUMUKK,8.46212,76.95016
s113,PAZAJIRA,8.4561,76.95
s114,AMBALATHARA,8.452910000000001,76.95094
s115,MILMA,8.448039999999999,76.95187
s116,KARIMBUVILA,8.443439999999999,76.95251
s117,THIRUVALLM,8.44107,76.95504
s118,SCHOOL JN,8.441230000000001,76.95767
s119,BNV HSS SCHOOL,8.44326,76.95693
s120,MENILAM,8.44655,76.95942
s121,PARALAKUNNU,8.45198,76.96113000000001
s122,MADATH NADA,8.45202,76.96119
s123,NELLIYODU,8.45186,76.96477
s124,MADHU PALAM,8.452010000000001,76.96767
s125,KARUMAM,8.45684,76.97309
s126,IDAGRAMAM,8.45905,76.9747
s127,MARUTHOOR KADAVU,8.46209,76.97274
s128,AZAGAL,8.46723,76.97239
s129,LAKSHMI KALYANA MANDAPAM,8.47053,76.97539
s130,KAIMANAM,8.47332,76.97718
s131,POLY TECNIC,8.4754,76.9744
s132,NIRAMANKARA,8.47834,76.97077
s133,KARAMANA,8.481810000000001,76.96744
s134,KAILASAM,8.48119,76.96193000000001
s135,PRS,8.48134,76.95942
s136,KILLIPALAM,8.48211,76.95725
s137,CHENDITTA,8.48442,76.9554
s138,THAMPANOOR RLY,8.48743,76.95225
s139,THAMPANOOR,8.48771,76.95045
s141,KSRTC CHIEF OFFICE,8.48059,76.94606999999999
s142,VAZHAPPALLI JN,8.480939999999999,76.94193
s143,WEST FORT,8.48302,76.94163
s144,PERUNTHANNI,8.483360000000001,76.93927
s145,SUBASH NAGAR,8.48117,76.93644
s146,INCHAKKAL JN,8.4796,76.93381
s147,VALLAKADAVU,8.478480000000001,76.93207
s148,VALLAKADAVU PALLI,8.47756,76.93055
s149,VALLAKADAVU CEMENT FACTORY,8.47587,76.92971999999999
s150,PD NAGAR,8.46674,76.92995
s151,THOPINAKAM,8.46862,76.92771
s152,VALIYATHURA jn,8.46526,76.92623
s153,KUZHIVILAKAM,8.46745,76.92345
s154,ST.ANTONYS PUBLIC SCHOOL,8.47102,76.923
s155,LICY ROAD,8.47344,76.92099
s156,AIRPORT JN,8.47478,76.91960999999999
s157,FCI 1,8.4759,76.91707
s158,FCI,8.4758,76.91528000000001
s159,SANGUMUKAM BEACH,8.48137,76.91261
s160,PRATHEEKSHA HOSPITAL,8.48402,76.91031
s161,KANNANTHURA PALLI,8.48633,76.90768
s162,KANNANTHURA,8.48842,76.9058
s163,VETTUKADU 3,8.49049,76.90405
s164,VETTUKADU2,8.49293,76.90205
s165,VETTUKADU CHURCH,8.49465,76.90054
s166,MANACAUD,8.47522,76.94768
s167,TOLL JN,8.46977,76.94821
s168,KALLATTUMUKKU,8.462,76.95021
s169,NATIONAL COLLEGE,8.459010000000001,76.9506
s170,PARAVANKUNNU,8.4561,76.94996
s171,THIRUVALLAM,8.441089999999999,76.95506
s172,THIRUVALLAM SCHOOL,8.44107,76.95789
s173,STUDIO JN,8.43973,76.96056999999999
s174,PAZHAYA PANCHAYATH OFFICE,8.4378,76.96163
s175,PACHALOOR CHURCH,8.43399,76.96385
s176,PACHALOOR JN,8.4316,76.96571
s177,VANDITHADAM,8.430760000000001,76.97046
s178,POONKULAM,8.42724,76.97222
s179,PADINJARE POONKULAM,8.42342,76.97301999999999
s180,POONKULAM JN,8.42268,76.97679000000001
s181,CHANALKARA,8.425239999999999,76.98049
s182,AGRICULTURAL COLLEGE,8.42689,76.98496
s183,KAYALKARA,8.42595,76.99495999999999
s184,KAKKAMOOLA JN,8.42623,77.0003
s185,KAKKAAMOOLA,8.425939999999999,77.00109
s186,GRACE NAGAR,8.416319999999999,77.00545
s187,AMARIVILA,8.41412,77.00527
s188,NELLIVILA,8.41273,77.00777
s189,NELLIVILA SCHOOL,8.41245,77.00948000000001
s190,NELLIVILA TANK,8.41035,77.01315
s191,PULLANJIMUKKU,8.40908,77.01526
s192,CHAVADINADA,8.40206,77.01191
s193,AYYANKALI SCHOOL,8.3968,77.0062
s194,VENGANOOR JN,8.396460000000001,77.00322
s195,KSEB,8.3941,76.99937
s196,KALLUVETTAMKUZHY,8.3909,76.99654
s197,KALLUVETTAMKUZHY JN,8.39109,76.99335
s198,VIZHINJAM STREET,8.38485,76.9922
s199,VIZHINJAM JN,8.38286,76.99197
s200,VIZHINJAM BUSSTAND,8.3816,76.99235
s201,PATINJARE NADA,8.48291,76.94181999999999
s202,KSEB,8.47687,76.93585999999999
s203,MUTTATHARA (CO OPERATIVE BANK),8.47424,76.93566
s204,KALLUMOODU JN,8.469619999999999,76.93581999999999
s205,PONNARA SCHOOL (PS NAGAR),8.46871,76.9342
s206,BANGLADESH,8.46803,76.93296
s207,PD NAGAR VALLAKADAVU,8.46733,76.93148000000001
s208,ST XAVIER CHURCH,8.46688,76.92988000000001
s209,VALIATHURA,8.46601,76.9267
s210,VALIATHURA jn(HOSPITAL),8.46473,76.92619
s211,VELAKANNI JN,8.46059,76.92959
s212,VELAKANNI(ROSS MINI CONVENT SCHOOL,8.45988,76.9305
s213,CHERIYATHURA,8.45733,76.93252
s214,BEEMAPALLI,8.456,76.93401999999999
s215,KALLAT JN,8.46187,76.95025
s216,MILMA DAIRY,8.44845,76.95196
s217,THIRUVALLAM JN,8.44112,76.95496
s218,STUDIO JN,8.43975,76.96048
s220,PACHALLOOR JN,8.4315,76.96582
s221,WEST POONKULAM,8.42403,76.97283
s222,POONKULAM JN,8.42274,76.97678
s223,CANAL KARA,8.42505,76.98014
s224,AGC,8.42695,76.98489000000001
s225,AGC WORK SHOP,8.424719999999999,76.99089000000001
s226,KAKKAMOOLA PALLY,8.42715,76.99834
s227,KAKKAAMOOLA THAZHA,8.42737,77.00388000000001
s228,SASTHAM KOVIL JN,8.42874,77.00605999999999
s229,KALIVOOR STADIUM,8.43122,77.01254
s230,Kaliyoor PANCHAYATH oFFICE,8.43172,77.01347
s231,KALLIYOOR,8.43249,77.01675
s232,KALLIYOOR MODEL HSS,8.43212,77.01824
s233,PUNNAMOODU JN,8.43155,77.02417
s234,VINAYAKA  AUDITORIUM,8.431980000000001,77.02861
s235,VEDIVECHAN KOVIL,8.432030000000001,77.03027
s236,MUDAVOOR PARA,8.4295,77.03496
s237,MUDAVOOR PARA GOVT. SCHOOL,8.42698,77.04115
s238,BALARAMAPURAM,8.42569,77.04512
s239,VAZHIMUKKU,8.42052,77.05201
s240,ARALUMOODU,8.417539999999999,77.05805
s241,AUTO MOBILES,8.41461,77.06130999999999
s242,NIMS,8.41111,77.06544
s243,10th StONE,8.41115,77.06925
s244,MOONNUKALINMOODU,8.40852,77.07523
s245,TB JN,8.40601,77.08228000000001
s246,ALUMOODU JN,8.40356,77.08484
s247,NEYYATINKARA KRISHNAN KOVIL / COURT,8.401,77.0878
s248,NEYYATINKARA BUS STAND,8.39758,77.08782
s249,GRAMAM,8.3939,77.09227
s250,CSI JN,8.38895,77.10044
s251,AMARAVILA CHECK POST,8.38912,77.10495
s252,"GANAPATHI KOVIL JN ,AMARAVILA",8.388919999999999,77.10855
s253,THANNIMOODU,8.387739999999999,77.11140999999999
s254,AANAKKUNNU CHURCH,8.38574,77.11525999999999
s255,UDHIYANKULANGARA JN,8.37932,77.12159
s256,KOTTAMAM,8.373389999999999,77.12785
s257,KOTTAMAM MARKET,8.37128,77.13036
s258,PARASUVAIKAL,8.364230000000001,77.13795999999999
s259,PARASUVAIKAL MOSQUE,8.3575,77.14094
s260,IDICHAKKAPLAMOODU,8.35501,77.14408
s261,KURUNGUTTY,8.35089,77.14751
s262,PAVATHIYANVILA,8.34822,77.14931
s263,"HOSPITAL JN,PARASALA",8.342880000000001,77.15286
s264,PARASSALA,8.34174,77.15632
s265,INCHIVILA,8.3358,77.16582
s266,KALIYIKKAVILA,8.33465,77.17151
s267,PLAMOODDU,8.51415,76.94587
s270,PANANVILA,8.537230000000001,76.94169000000001
s271,NALANCHIRA GATE,8.54245,76.94161
s273,ANANDAVALLEESWARAM,8.55862,76.94365
s274,PERIYANKODU,8.56748,76.94414
s275,THAZHE CHITTAZHA,8.57667,76.94323
s276,MUKKAMPALAMOODU,8.58489,76.94698000000001
s277,VATTAPARA VILLAGE OFFICE JN(PALLIVILA),8.58835,76.94988000000001
s278,VATTAPARA jn,8.59275,76.95324000000001
s279,VATTAPARA 2,8.59491,76.95689
s280,SEEMAMULAMUKKU,8.59563,76.95861
s281,PRASANTH NAGAR,8.59783,76.95645999999999
s282,PMS,8.60111,76.95563
s283,PMS COLLEGE 2,8.60179,76.95736
s284,PUNGUMOODU JN,8.6055,76.95755
s285,PUNGUMOODU 2,8.60942,76.95806
s286,CHAPATH,8.6134,76.95772
s287,NARIKKAL,8.616810000000001,76.95657
s288,PULIMOODU,8.61882,76.95825
s289,CHIRAMUKKU,8.621739999999999,76.95774
s290,KANNASUPATHRI,8.499310000000001,76.93983
s291,GH,8.50065,76.9308
s292,KANNAMOOLA PALAM,8.50116,76.93141999999999
s293,KANNAMOOLA,8.50312,76.93179
s294,JON COX COLLEGE,8.50628,76.93123
s295,AVITTAM ROAD,8.508510000000001,76.92969000000001
s296,BARMA ROAD,8.51035,76.9288
s297,AJ HALL,8.51206,76.92763000000001
s298,KUMARAPURAM,8.51422,76.92741
s299,MEDICAL COLLEGE SCHOOL,8.51644,76.92756
s300,MEDICAL COLLEGE,8.52242,76.93009
s301,ULLOOR,8.53081,76.92881
s302,KOCHULLOOR,8.53547,76.92708
s303,WATER AUTHORITY,8.53754,76.92627
s304,PONGUMOODU,8.54032,76.92444
s305,CHEYANTHI,8.54298,76.92293000000001
s306,KALLAMPALLI,8.547880000000001,76.92126
s307,SREEKARYAM,8.549619999999999,76.91696
s308,KAILAS,8.48125,76.96189
s309,T V S,8.4772,76.97175
s310,CENTRAL WORKS,8.47157,76.97966
s311,PAPPANAM KODU,8.4704,76.98103
s312,THUNAVILA,8.46518,76.99004000000001
s313,KARAKKAMANDAPAM,8.46318,76.99219000000001
s314,PAZHAYA KARAKKAMANDAPAM,8.46089,76.99488000000001
s315,HOMEO COLLEGE,8.45913,76.99762
s316,VELLAYANI JN,8.45715,77.00043000000001
s317,MEMAM,8.45432,77.00327
s318,MEMAM SCHOOL,8.451419999999999,77.008
s319,PAVACHAMBALAM,8.449710000000001,77.01047
s320,PALLICHAL THODE,8.44523,77.01563
s321,PALLICHAL JN,8.44164,77.01834000000001
s322,PAROORKUZHI,8.43847,77.02275
s323,AYANIMOOD,8.43477,77.02677
s324,VEDIVENCHAN KOVIL,8.43233,77.03044
s325,MUDAVURPARA,8.42695,77.04137
s326,SPINNING MILL,8.42038,77.04321
s327,AYANIMOOE,8.416039999999999,77.04169
s328,PANAYARAKUNNU,8.4122,77.0391
s329,PANAYARAKUNNU SCHOOL,8.41055,77.03712
s330,MANGALATHUCONAM,8.40905,77.03563
s331,PALAKK,8.40573,77.03401
s332,PALLINADA,8.403260000000001,77.03209
s333,VILLAGE,8.40191,77.03081
s334,KATTAKALKUZHI,8.39974,77.02887
s335,SISILIPURAM,8.39585,77.02448000000001
s336,UCHAKADA,8.394680000000001,77.02365
s337,PUMBHOUSE,8.39017,77.02205
s338,VATTAVILA,8.38756,77.02058000000001
s339,KURISADY,8.38363,77.01919000000001
s340,PANJAYTHU OFFICE,8.38074,77.01833
s341,PAYARUAMOOD,8.37852,77.01776
s342,NETTATHANNI,8.37323,77.01642
s343,PRIYADHARSINI NAGAR,8.37144,77.01609
s344,VALIYAVILA,8.36924,77.0148
s345,PULINKUDI JN,8.36537,77.013
s346,AZHIMALA KAVADAM,8.36329,77.01442
s347,AZHIMALA TEMPLE,8.35688,77.01153000000001
s348,ST MARY,8.526539999999999,76.93894
s349,PANENVILA,8.53758,76.94165
s350,STEP JN,8.54981,76.94241
s351,MANNADALA,8.560989999999999,76.94328
s352,THOTTUMUKK,8.60513,76.96486999999999
s353,MANGADE,8.60939,76.96888
s354,PP NAGAR,8.61835,76.96653
s355,MG NAGAR,8.62665,76.9662
s356,IRIJAYM,8.62572,76.96699
s357,MANAKAD,8.475610000000001,76.94943
s358,POST OFFICE,8.47466,76.95031
s359,AMMANKOVIL,8.47379,76.95187
s360,AATUKAL,8.47123,76.95255999999999
s361,MEDAMUKK,8.46868,76.95394
s362,CHIRAMUKK,8.46675,76.95473
s363,HOMEO MEDICAL COLLAGE,8.46725,76.95801
s364,CHIRA PAALAM,8.4664,76.9609
s365,KALLADI MUKHAM,8.4672,76.96391
s366,KULATHARA,8.46544,76.967
s367,MARUTHARA,8.4637,76.96582
s368,ELAM THENG,8.461839999999999,76.96557
s369,CHANGALA NADA,8.45937,76.9652
s370,CHETTIYARU MUKK,8.45697,76.9648
s371,VALIYAPARAMB,8.45652,76.96235
s372,KALLADI SOUTH,8.45769,76.95936999999999
s374,MUSEUM,8.508389999999999,76.95398
s375,VELLAYAMBALAM,8.51197,76.96353
s376,SASTHAMANGALAM,8.51309,76.97202
s377,MARUTHAMKUZHY PALAM,8.51407,76.97719000000001
s378,MARUTHAMKUZHY,8.51405,76.97926
s379,KANJIRAMPARA,8.52137,76.97968
s380,MANJADIMOODU,8.522969999999999,76.984
s381,VATTIYOORKAVU,8.52493,76.98897
s382,MANNARAKONAM,8.52946,76.99002
s383,POLYTECHNIC,8.535689999999999,76.99075
s384,NETTAYAM,8.54107,76.98939
s385,MUKKOLA,8.547239999999999,76.98701
s386,KACHANI SCHOOL JN,8.55226,76.99297
s387,KACHANI,8.55535,76.99481999999999
s388,KALATHUVAYAL,8.55647,76.99884
s389,KALATHUKAL,8.55666,77.00187
s390,CHANICHANKADAVU PALAM,8.55408,77.00678
s391,ERAYAMKODU,8.55236,77.01394
s392,ERAYAMKODU POST OFFICE,8.55045,77.01543000000001
s393,CHERIYAKONNI,8.549560000000001,77.02401
s394,CHERIYAKONNI JN,8.54922,77.02745999999999
s395,THINAVILA,8.54545,77.03782
s396,THINAVILA CHURCH,8.54176,77.03860999999999
s397,NEDUMKUZHY,8.53892,77.04372
s398,MULAYARA,8.54025,77.04734
s399,KADUKKAMOODU,8.5425,77.05566
s400,KADUKKAMOODU JN,8.54551,77.05498
s401,NEDIYAVILA,8.545810000000001,77.0627
s402,URIYAKODE,8.55095,77.06691
s403,KONNIYOOR,8.54905,77.07273
s404,KONNIYOOR JN,8.54677,77.07585999999999
s405,UNDAMPARA,8.54321,77.08097
s406,POOVACHAL JN,8.53717,77.08673
s407,POOVACHAL,8.53309,77.08675
s408,MULAMOODU,8.52899,77.087
s409,PUNNAMKARIKKAL,8.52632,77.08652
s410,KAITHAKONAM,8.51938,77.08523000000001
s411,MARKET JN,8.5104,77.08336
s412,KATTAKADA JN,8.50763,77.0818
s413,KATTAKADA BUSSTAND,8.50682,77.08161
s414,TOLL JN,8.47005,76.94816
s415,VALIYA VEED LANES,8.46503,76.94901
s416,NATIONAL COLLEGE JN,8.45908,76.95053
s417,PARAVANMUKK,8.4562,76.95006
s418,MILMA DIARY,8.44841,76.9519
s419,THIRUVALLAM TEMPLE,8.441130000000001,76.95495
s420,THIRUVALLAM SCHOOL JN,8.44115,76.95772
s421,NALAMKALL,8.434239999999999,76.96367
s423,KOLIYOOR MUKALIL,8.41842,76.98405
s424,KOLLIYOOR MARKET,8.41767,76.98554
s425,KIZHOOR,8.42286,76.98415
s427,AYURVEDA COLLAGE,8.490960000000001,76.94719
s429,TEMPLE,8.556239999999999,76.94351999999999
s430,PERIYAMKODE,8.56751,76.94406
s431,MUKKAMBALA MOODU,8.58479,76.94693000000001
s432,AMBALA NAGAR,8.58482,76.94918
s433,OZUKUPARA,8.59037,76.94393000000001
s434,THAKARAPARAMB,8.59522,76.93858
s435,KUTTIYANINI JN,8.59373,76.93732
s436,KUTTIYANINI TEMPLE,8.596110000000001,76.93661999999999
s437,KUTTIYANINI SCHOOL,8.59707,76.93326
s438,PULAKAM,8.599689999999999,76.93095
s439,VAZOTUPOIKA,8.6012,76.92865
s440,PANDALAMKODE,8.604989999999999,76.92689
s441,DEVI NAGAR,8.60927,76.92832
s442,KAVIL NAGAR,8.61411,76.92714000000001
s443,KADUVAKUZHI,8.61881,76.92506
s444,PALLIKUNNU,8.62331,76.92966
s445,NEDUVELI,8.62462,76.93138
s446,NALUMUKK,8.62665,76.92743
s447,KONJIRA,8.63195,76.9256
s448,KONJIRA SOCIETY,8.63165,76.9291
s449,KAITHAYIL,8.6308,76.93396
s450,KANYAKULAGARA,8.62995,76.93675
s451,KALLATTUMUKU,8.46205,76.95018
s452,PARAVAMKUNNU,8.45604,76.95006
s453,MILMA Jn,8.44851,76.95204
s454,THIRUVALLA,8.4411,76.95512
s455,THIRUVALLA SCHOOL,8.44105,76.95792
s456,CHITHRANJALI STUDIO Jn,8.43773,76.96176
s457,PAZHAYAPANCHAYATH  OFFICE,8.43791,76.96159
s458,PACHALLOOR PALLI,8.4338,76.96396999999999
s459,VIVEKANANTHA SCHOOL,8.43528,76.96281
s460,PACHALLOOR SCHOOL,8.42706,76.9675
s461,5TH STONE,8.419839999999999,76.96839
s462,PARAVILA,8.41721,76.96954000000001
s463,VAZHAMUTTAM,8.41287,76.97153
s464,SCOCITY  JN(THUPANATHUKAVU),8.4106,76.97333
s465,VELLAR,8.40725,76.9761
s466,NEDUMAM,8.4041,76.9783
s467,KOVALAM Jn,8.398710000000001,76.98198000000001
s468,APSARA,8.39565,76.98037
s469,KOVALAM POLICE,8.39167,76.97724000000001
s470,KOVALAM BEACH,8.391580000000001,76.97488
s475,KOVILNADA,8.55616,76.94355
s476,PERIYAMKODU,8.56767,76.94404
s477,ARUVIYOD,8.57062,76.94606999999999
s478,OZHUKUPARA MAIN,8.59033,76.94394
s479,OZHUKUPARA MELIL,8.59245,76.9417
s480,THAKARAPARAMBU,8.59528,76.93831
s481,KUTTIYANI JN,8.59373,76.93732
s482,POST OFFICE JN,8.475010000000001,76.95003
s483,KURYATHI,8.47378,76.95189
s484,ATTUKAL,8.47127,76.95266
s485,MEDAMUKKU,8.46867,76.95395
s486,IRANIMUTTAM,8.46717,76.95796
s487,CHIRAPALAM,8.466389999999999,76.9605
s488,KALADY,8.46716,76.96398
s489,KOLATHARA,8.465539999999999,76.96699
s490,VAZHAVILAKAM,8.464,76.96865
s491,MARUTHOORKADAVU(VAI-ATUKAL),8.461969999999999,76.97083
s492,AMMAN KOVIL \ KURYATHI,8.47388,76.95181
s493,HOMEO COLLEGE \ AYIRAANIMUTTAM,8.467239999999999,76.95801
s494,KALADY JN,8.46715,76.96408000000001
s495,MARUTHOORKADAVU,8.46194,76.97081999999999
s497,EYE HOSPITAL,8.49751,76.93715999999999
s498,PALLIMUKU,8.49505,76.92916
s501,KUDDAVOOR,8.50329,76.91887
s502,PUMP HOUSE,8.50543,76.91625
s503,ANNAYARA,8.50721,76.91405
s504,LORDS JN,8.50845,76.9133
s505,KIZHAKKATHIL JN,8.510689999999999,76.90901
s506,KIMS,8.51143,76.90675999999999
s507,SNDP VENPALAVATTAM,8.5113,76.90576999999999
s508,VENPALAVATTAM,8.51574,76.90281999999999
s509,ORUVATHIL KOTTA EAST,8.51705,76.90224
s510,ORUVATHIL KOTTA,8.51793,76.89945
s511,PERINTHANI,8.47446,76.94399
s512,MUKKOLAKKAL SREE VARAHAM TEMPLE,8.47365,76.9426
s513,MUKKOLAKKAL 2,8.47153,76.94051
s514,VIDHYANIKETHAN,8.47054,76.93878000000001
s515,PERUNELLI JN,8.46701,76.93605
s516,VADUVETH TEMPLE,8.463189999999999,76.93844
s517,PARUTHIKUZHI 1,8.46069,76.94054
s518,PARUTHIKUZHI jn,8.45779,76.94273000000001
s519,BALAVAN NAGAR,8.47339,76.94743000000001
s520,BALAVAN NAGAR 2,8.47232,76.94505
s521,BALAVAN NAGAR 3,8.47113,76.94283
s522,GANGA NAGAR,8.47051,76.94162
s523,GANGA NAGAR 2,8.46928,76.9397
s524,HIGH WAY,8.46786,76.93759
s525,PERUNELLI(MUTTATHARA),8.46705,76.93633
s526,VADUVOTHA TEMPLE,8.46325,76.9385
s527,PARUTHIKUZHI(VIA-BALVAN NAGAR),8.45785,76.94273000000001
s528,MANACAUD JN,8.47531,76.94771999999999
s529,KAMALESWRAM,8.46815,76.94815
s530,KALLATUMUKKU,8.462110000000001,76.95014
s531,THIRUVALLAM SCHOOL JN,8.44107,76.95785
s532,NALUMUKKU/ PACHALLOOR PALLI,8.43389,76.96383
s533,PACHALLUR JN,8.43147,76.9659
s534,SIGNAL STATION,8.42644,76.97236
s535,CGO\ WEST PUNKULAM,8.42351,76.97298
s536,PUNKULAM,8.4227,76.9769
s537,SOCIETY,8.42496,76.98001
s538,WORHSHOP,8.42539,76.98931999999999
s539,ROMAPPALLY,8.42382,77.00452
s540,KUZHITHALACHAL,8.42197,77.00721
s541,MAVUVILA,8.42127,77.00882
s542,THETTIVLA,8.4199,77.01284
s543,THARANGINI/PHC,8.419410000000001,77.01427
s544,PERINGAMALA,8.41705,77.02009
s545,BYPASS JN,8.449760000000001,76.94870999999999
s546,PUTHANPALLI,8.44862,76.94768
s547,SM LOCK,8.447239999999999,76.94641
s548,1(K BARGAVAN WAITING SHED),8.44564,76.94498
s549,ALUMOODU,8.44367,76.9441
s550,POONTHURA,8.44103,76.94535
s554,PANAVILA,8.53657,76.94192
s555,MAINGATE,8.542530000000001,76.94164
s556,STEP,8.54846,76.94305
s557,KOTAMUGAL,8.55295,76.94293
s558,MANNAMTHALA  TEMPLE,8.5561,76.94358000000001
s559,MANNAMTHALA JN,8.56065,76.94323
s560,VENGALATHUKONAM,8.56302,76.93807
s561,KERALADITHYAPURAM,8.563419999999999,76.93395
s562,VISHNU TEMPLE,8.56521,76.93375
s563,PALATHARA,8.56874,76.93248
s564,JAYPURAM,8.57243,76.92909
s565,SOCIETY MUKK,8.5729,76.92538
s566,POUDICONAM,8.57681,76.92534
s568,KANAKAKUNNU,8.509689999999999,76.95831
s569,PANIKERS LANE,8.51175,76.96746999999999
s570,HOSPITAL JN,8.5135,76.97359
s571,MARUTHANKUZHI 1,8.51406,76.97717
s572,MARUTHANKUZHI jn,8.51332,76.9793
s573,CHITTATINKARA,8.51243,76.98385
s574,VETTA MUKKU,8.51023,76.98657
s575,PTP NAGAR 1,8.51304,76.98775
s576,PTP NAGAR(NEAR CANARA BANK),8.51448,76.98926999999999
s577,PTP NAGAR 3(NEAR FLAT),8.51335,76.99113
s578,PTP NAGAR 4,8.51116,76.99375
s579,MUSUEM,8.50832,76.95396
s580,PANIKERS,8.51164,76.9675
s581,SASTHAMANGALAM HOSPITAL JN,8.51338,76.97353000000001
s582,THOZHUVANKOD,8.522260000000001,76.98167
s583,MANJADIMOOD,8.522839999999999,76.98376
s584,THOPPUMUKKU,8.52571,76.99199
s585,VIVEKANANDHAPURAM,8.52597,76.99523
s586,VAZHOTTUKONAM,8.52985,76.9976
s587,VAYALIKADA,8.53316,77.0009
s588,MOONAMOODU,8.53593,77.00274
s589,PANANKARA,8.53382,77.0068
s590,VELLAIKADAVU,8.53226,77.01037
s591,PARAMBUMUKKU,8.53694,77.01741
s592,PULIYARAKONAM,8.53885,77.0216
s593,AMBALATHARA JN,8.452860000000001,76.95093
s594,PACHALLOOR PALLY,8.43374,76.96405
s595,SAW MILL,8.43272,76.9684
s596,MG COLLEGE,8.43501,76.96863
s597,SANTHIPURAM,8.43625,76.97008000000001
s598,KURISADI PALLY,8.43852,76.96996
s599,VISWANATHAPURAM,8.44052,76.97194
s600,MULLUVILA,8.44225,76.97278
s601,PUNCHAKKARI jn,8.444980000000001,76.97345
s602,CHAMUDESWARY TEMPLE,8.4471,76.9733
s603,PUNCHAKKARI,8.44856,76.97536
s604,BNV SCHOOL,8.44316,76.9567
s605,1(KANJIRAVILA TEMPLE),8.445910000000001,76.96092
s606,MENILAM CHANDHA,8.44448,76.96343
s607,2(YUVA KERALA ARTS AND SPORTS CLUB),8.44485,76.96507
s608,LIBRARY,8.44557,76.96734000000001
s609,THAMBURAN MUKKU,8.444469999999999,76.96884
s610,BSVL SCHOOL,8.44415,76.97079000000001
s611,CHAMUNDESWARI NAGAR,8.44725,76.97326
s612,MYTHRI NAGAR,8.43775,76.96172
s613,VANDITHADAM jn,8.43091,76.97041
s614,VANDITHADAM2(KAVITHA AUDITORIUM,8.4327,76.97031
s615,PAPANCHANI,8.43565,76.97175
s616,PAPANCHANI 2,8.43727,76.97321
s617,PAPANCHANI JN,8.438839999999999,76.9755
s618,PERAKAM1,8.4409,76.97748
s619,PERAKAM 2,8.44229,76.97966
s620,PERAKAM jn(NEAR POURNAMI NAGAR),8.44413,76.97879
s621,PERAKAM CHURCH,8.44636,76.97782
s622,CHACKA JN,8.49175,76.92255
s623,CHACKA ITI,8.490310000000001,76.9168
s624,BRAHMOS,8.491539999999999,76.91255
s625,MATHILMOOK,8.49364,76.91068
s626,ALL SAINTS COLLEGE,8.49618,76.908
s627,BALAN NAGAR,8.4998,76.90476
s628,TITANIUM,8.50303,76.90183
s629,TRANSFOMER (TTP),8.50643,76.89865
s630,KOCHUVELI RAILWAY STATION,8.50937,76.89554
s631,MADHAVAPURAM,8.512319999999999,76.89180999999999
s632,VELI CHURCH,8.51265,76.88476
s633,VELI HOSPITAL,8.51507,76.88276
s634,KICHU BACKERY,8.518460000000001,76.88015
s635,SOUTH THUMBA,8.521510000000001,76.87768
s636,POUNDU KADAVU,8.525039999999999,76.88211
s637,CHITHIRA NAGAR,8.53679,76.87751
s638,STATION KADAV,8.54302,76.87354
s639,SANTHI NAGAR,8.54668,76.87056
s640,NEHRU JN,8.54968,76.86819
s641,WATER TANK,8.54771,76.86269
s642,PALLYTHURA,8.546710000000001,76.85889
s643,RAJEEV GANDHI NAGAR,8.54992,76.85543
s644,FATHIMA CLINIC,8.55256,76.85339
s645,ARATTUKUZHI,8.55557,76.85096
s646,ST XAVIERS COLLEGE,8.56017,76.84714
s647,ST ANDREWS,8.56535,76.84288000000001
s648,PUTHANTHOPPU,8.5724,76.83729
s649,WEST POONKULAM (CGO),8.423580000000001,76.97296999999999
s650,POONKULAM SCHOOL,8.42062,76.97923
s651,MELE KOLIYOOR,8.4183,76.98437
s652,KOLIYOOR JN,8.41741,76.98572
s653,KOLIYOOR SCOCITY,8.41458,76.98613
s654,AYURVEDA HOSPITAL,8.4105,76.98801
s655,MUTTACAUD JN,8.40782,76.98953
s656,MUTTACAUD 2,8.40734,76.99298
s657,PANANGODU,8.40217,76.99476
s658,AMBEDHKAR NAGAR,8.40051,76.99919
s659,VENGANOOR JN,8.39649,77.00353
s660,GANDHI SMARAKA HOSPITAL,8.39818,77.00776
s661,NELLIVILA TEMPLE,8.39909,77.00845
s662,CHAVADI NADA,8.40196,77.01171
s663,VENGANOOR VILLAGE OFFICE,8.40524,77.01399
s664,PULLANIMUKKU,8.409130000000001,77.01529000000001
s665,KAMARAJ NAGAR,8.413210000000001,77.01756999999999
s666,PERINGAMALA PALLI,8.415510000000001,77.01904
s667,PERINGAMALA JN,8.4171,77.02025
s668,KANIKKAKUTTY,8.420539999999999,77.02133
s669,KELESWARAM,8.42535,77.02247
s670,KELESWARAM PALLI,8.42794,77.023
s671,BAGAVATHI NADA,8.43148,77.02767
s672,MUDAVOOR PARA SCHOOL,8.426960000000001,77.04094
s673,BALARAMAPURAM JN,8.424760000000001,77.04652
s674,VAZHIMUKKU 2(MARUTHI SUZUKI SHOW ROOM),8.41664,77.05176
s675,KALLUMOODU TEMPLE,8.4127,77.05089
s676,PLAVILA,8.41012,77.05169000000001
s677,RAMAPURAM JN,8.406239999999999,77.05196
s678,RAMAPURAM TEMPLE,8.40618,77.05566999999999
s679,TVM CITY,8.48317,76.94743000000001
s680,UNIVERSITY,8.50261,76.94922
s681,GENERAL HOSPITAL JN,8.499239999999999,76.94334
s682,PETTA,8.49425,76.92815999999999
s684,MATHILMUKKU,8.49366,76.91072
s685,MUSLIM PALLI,8.49433,76.90673000000001
s686,RAJIV NAGAR,8.4916,76.90853
s687,GV RAJA,8.48904,76.911
s688,SANKHUMUGAM BEACH,8.48128,76.9126
s689,PRATHIKSHA HOSPITAL,8.48375,76.91046
s690,KANNAMTHURA CHURCH,8.48611,76.90786999999999
s691,CHERU VETTUKAD,8.48807,76.906
s692,VETTUKAD SCHOOL,8.49285,76.90202
s693,VETTUKAD,8.494439999999999,76.90068000000001
s694,KOCHUVELI,8.502,76.89348000000001
s695,KOCHUVELI PO,8.50738,76.89046
s696,VELI LAKE,8.509910000000001,76.8899
s697,VELI,8.51123,76.89145
s698,MANNA NAGAR,8.435310000000001,76.96287
s700,KOLLIYOOR,8.41841,76.9841
s701,KOLIYOOR SOCIETY,8.414769999999999,76.98602
s702,MUTTAIKADU AYURVEDA HOSPITAL,8.41036,76.98813
s703,MUTTAIKADU JN,8.407739999999999,76.98940999999999
s704,MUTTAIKADU 2,8.40735,76.99291
s705,PANANGOD,8.40211,76.99478
s706,PANANGOD \ VENNIYOOR,8.40043,76.99916
s707,VENGANOOR,8.39654,77.00326
s714,KOTAMUKAL,8.55288,76.94289
s715,ANANDAVALLI TEMPLE,8.55622,76.94351999999999
s716,MARUTHUR,8.57196,76.94514000000001
s717,THYCAUD THEATRE,8.6743,76.91098000000001
s718,CHITAZHA,8.580630000000001,76.94548
s719,KANAKODU,8.59398,76.95011
s720,16th MILE,8.60178,76.94634
s721,VETTINADU MANDAPAM,8.60491,76.94275999999999
s722,VETTINADU MARKET,8.6105,76.94015
s723,VETTINADU,8.613710000000001,76.93958
s724,GRAND AUDITORIUM,8.6244,76.93767
s725,KANYAKULANGARA,8.63027,76.93684
s726,VEMBAYAM PETROL PUMP,8.64011,76.93044
s727,KOPPAM,8.64489,76.92822
s728,MANCHADIMOODU,8.65259,76.92773000000001
s729,KAVIYADU,8.65437,76.92305
s730,PIRAPPANKODU,8.6579,76.92016
s731,PALAVILA,8.66199,76.91613000000001
s732,THYCAUD,8.66274,76.91247
s733,THYCAUD PETROL PUMB,8.665939999999999,76.91152
s734,VIYETU,8.66879,76.91150999999999
s735,VENJARAMOODU,8.67807,76.91022
s736,KOTTAIKAKAM,8.48052,76.94206
s738,INJAKKAL,8.48051,76.93348
s739,ANATHAPURI HOSPITAL,8.48456,76.92975
s740,CHAKKAI,8.49215,76.9226
s741,I M A,8.49957,76.91535999999999
s742,LORDS,8.50527,76.90954
s743,KARIKAKAM TEMPLE,8.50733,76.90686
s744,KUZHIVILA,8.52385,76.89119000000001
s745,MGM,8.52877,76.88636
s747,INFOSYS,8.533380000000001,76.88235999999999
s748,GURU NAGAR,8.537239999999999,76.87961999999999
s749,S N NAGAR,8.539710000000001,76.87783
s750,KULATHOOR,8.54529,76.87715
s751,PUBLIC PARK,8.55059,76.87695
s752,TECNOPARK,8.55804,76.87629
s753,KAZHAKOOTAM,8.56637,76.8733
s754,C S I,8.57589,76.86801
s755,BLOCK OFFICE,8.57875,76.86570999999999
s756,VETTU ROAD,8.58305,76.86235
s757,KANIYAPURAM,8.58758,76.85879
s758,CHAMUNDI NAGAR,8.50478,76.9086
s759,ANAYAR,8.50559,76.91611
s761,AISWARYAMUKK,8.62825,76.97137
s762,PARAYIIL KADA,8.605780000000001,76.96641
s763,CHIRAKANI,8.602219999999999,76.96469
s764,PERIYAKODE,8.568010000000001,76.94411
s765,TEMPLE STOP,8.55601,76.94372
s766,KOTTA MUGAL,8.55296,76.9432
s769,MADHA PURAM,8.65842,76.95589
s770,VAZHAVILA POILA,8.658669999999999,76.9513
s771,OZHUKUPARA JN,8.64777,76.94740999999999
s772,AMBALA NGAR,8.5847,76.94919
s773,MUKKUMPALAMOODU,8.58478,76.947
s774,KOVIL NADA,8.55595,76.94364
s775,PALAYAM1,8.50613,76.95185
s776,PALAYAM2,8.5025,76.95033000000001
s777,VETTUKADU 2,8.49274,76.90228
s778,FCI1,8.47599,76.91696
s779,AIRPORT,8.47481,76.91976
s780,ST ANTONYS PUBLIC SCHOOL,8.47135,76.92286999999999
s781,CEMENT FACTORY,8.47537,76.93099000000001
s782,INCHAKKAL,8.48018,76.93458000000001
s783,THRUVALLAM SCHOOL,8.441,76.95777
s784,KAMELESWARAM,8.46747,76.94824
s785,Velankanni(ROSS MINI CONVENT SCHOOL ),8.4596,76.93065
s786,VALIYATHURA,8.466389999999999,76.92693
s787,PD NAGAR(ST XAVIER CHURCH),8.46681,76.93018000000001
s788,PONNARA SCHOOL,8.46879,76.93428
s790,ENCHAKAL JN,8.48022,76.93463
s791,KALIYAKKAVILA,8.33465,77.17174
s792,PARASUVAIKKAL,8.36508,77.13705999999999
s793,GANAPATHI KOVIL JN,8.38885,77.10844
s794,NEYYATINKARA,8.39703,77.08811999999999
s795,MOONNUKALLINMOODU,8.4084,77.07524000000001
s796,NIMMS,8.411010000000001,77.06563
s797,AUTOMOBILE,8.414660000000001,77.06114000000001
s798,THYKADU PALLY,8.42264,77.04897
s799,KALLIYOOR PANCHAYATH OFFICE,8.43144,77.01316
s800,KAKKAMOOLA,8.425980000000001,77.00092
s801,AG C WORK SHOP,8.42535,76.98924
s802,PONGUMOODU 2,8.60904,76.95809
s803,PMS2,8.60179,76.9573
s804,SEEMAMULA  jn,8.59569,76.9587
s806,PALAYAM 3,8.507810000000001,76.95214
s807,PALAYAM 2,8.50602,76.95179
s808,CHEKKALAMUKKU,8.553410000000001,76.91698000000001
s809,KALLARAMOOLA,8.55655,76.92054
s810,KARIYAM JN,8.558019999999999,76.92348
s811,KARIYAM 2,8.557269999999999,76.92571
s812,DHEVIPURAM,8.55573,76.92843
s813,EDAVAKOD JN,8.553939999999999,76.93002
s814,CHEMPAKAM SCHOOL,8.55178,76.93089
s815,1,8.55072,76.93221
s816,GIREESHAN ROAD,8.54832,76.93296
s817,THATINADU,8.5448,76.93329
s818,SNEHA JN,8.542530000000001,76.9339
s819,PAROTTUKONAM,8.53829,76.93715
s821,PUBLIC LIBRARY,8.50489,76.95152
s822,PULINKUDI,8.36541,77.01286999999999
s823,VALIYA VILA,8.36922,77.01465999999999
s824,NETTATHANNI 1,8.375110000000001,77.01634
s825,PAYARUMOOD,8.37807,77.01746
s826,PACHAYATH OFFICE,8.38151,77.01831999999999
s827,UCHAKKADA,8.39477,77.02351999999999
s828,THEMMADIMUKK,8.396889999999999,77.02546
s829,KATTACHALKUZHI,8.400089999999999,77.02906999999999
s830,PALATHU KONAM,8.406989999999999,77.0344
s831,MANGALATHU  CONAM,8.409089999999999,77.03554
s832,PANARU SCHOOL,8.41135,77.03797
s833,PANARUKUNNU JN,8.41238,77.03909
s834,NAZARATH HOME,8.42689,77.04146999999999
s835,PALLICHAL THOD,8.445030000000001,77.01566
s836,PRAVACHAMBALAM,8.449010000000001,77.01133
s837,KAIMANAM JN,8.47337,76.97708
s838,POLY TECHNICAL,8.47512,76.97476
s839,TVS,8.47674,76.97227
s840,CHENTHIDA,8.48431,76.95568
s841,RAILWAY STATION,8.4872,76.95298000000001
s843,PARABIN KONAM,8.618689999999999,76.9664
s844,PATTALAM MUKK,8.61664,76.96757
s845,CHADPOOR,8.59861,76.96304
s846,SHEEMA VILA,8.59714,76.96106
s847,MUKKABALA MOODU,8.584760000000001,76.94691
s849,ELAMTHENG,8.461780000000001,76.96552
s850,MARUTHALA,8.46387,76.96584
s851,KALLADI,8.46702,76.96403000000001
s852,PUNNAMKARIKKAKAM,8.52612,77.08628
s853,UNDAPARA,8.54322,77.08093000000001
s854,URIYALODE,8.550880000000001,77.06666
s855,KADUKKAMOODU JN,8.545119999999999,77.06155
s856,CHERUMANKONAM JN,8.54607,77.03488
s857,CHACHANKADAVU PALAM,8.55396,77.00667
s858,KACHANI SCHOOL JN,8.5522,76.99304000000001
s859,KANJIRAPARA,8.521339999999999,76.97989
s861,KIZHOOR TEMPLE,8.42245,76.98745
s862,KIZHOOR NORTH,8.42093,76.98725
s863,KIZHOOR SAKHA,8.41752,76.98563
s864,KOLLIYOOR MUKALIL,8.42247,76.97693000000001
s865,POONKULAM WEST,8.42633,76.97227
s866,PACHALOOR,8.43163,76.96546
s867,NALAM KALL,8.4336,76.96401999999999
s868,KANYA KULAGARA,8.62986,76.93673000000001
s869,NADUVELI,8.62465,76.93144000000001
s870,KADUVA KUZHI,8.618039999999999,76.92477
s871,KAVIL PURAM,8.614130000000001,76.9272
s873,PANDALM KODE,8.60482,76.92695
s874,VAZOT POIKA,8.600610000000001,76.92956
s875,SCHOOL,8.597010000000001,76.93361
s876,TEMPLE,8.59635,76.93655
s877,MANNNADALA,8.5603,76.94355
s878,NALACHIRA MAIN GATE,8.541889999999999,76.94154
s879,BMG,8.50893,76.94954
s880,NEDUMAM(NO STOP),8.40398,76.97825
s881,THUPPANATHUKAVU,8.410810000000001,76.97306999999999
s882,PAZHAYAPANCHAYATH OFFICE,8.439,76.96089
s883,NATIONAL COLLEGE |,8.45928,76.95054
s885,INDHIRAGANDHI PRATHIMA,8.47055,76.96458
s886,THALIYAL SIVA TEMPLE,8.47216,76.96631
s887,THALIYAL,8.47335,76.96651
s888,ARASUMOODU,8.47599,76.96693
s889,KARAMANA SIVAN KOVIL,8.47847,76.96766
s890,POLICE STATION,8.480410000000001,76.96791
s891,KARAMANA JN,8.48121,76.96544
s892,CHENTHITTA,8.48419,76.95596
s893,THAMPANOOR RAILWAY STATION,8.487169999999999,76.95355
s894,KIZHAKKATHIL,8.510814,76.909062
s895,OOLAMKUZHI,8.508545,76.91315999999999
s896,PALLIMUKK,8.496578,76.931624
s897,PATTOR,8.497192,76.935175
s898,PERUNELLI JN(MUTTATHARA),8.46693,76.93621
s899,MUKKOLAKKAL,8.47356,76.94245
s900,PERITHANI JN,8.47472,76.94418
s901,MANACAUD 2,8.4761,76.94811999999999
s902,PARUTHIKUZHI,8.45786,76.94279
s903,PERUNELLY,8.46701,76.93615
s904,GANGA 2,8.46932,76.9394
s905,GANGA NAGAR JN,8.47055,76.9414
s906,BALAVAVAN NAGAR 3,8.47139,76.94292
s907,BALAVAN NAGAR 1,8.47377,76.94736
s908,THETTIVILA,8.42033,77.01120999999999
s909,KUZHICHALAKKAL,8.4219,77.00719000000001
s910,PALLINADA,8.42716,76.99825
s911,KSEB SECTION OFFICE,8.44572,76.94499
s912,BYPASS JN ABALATHRA,8.44984,76.94869
s913,ABALATHRA,8.45284,76.95085
s914,ATTAKULANGARA,8.478819999999999,76.94749
s915,JAYAPURAM,8.57254,76.92911
s916,KERALADITHYA PURAM,8.56353,76.93457
s917,VENGALATHU KUNNU,8.56316,76.9379
s918,MANNAMTHALA TEMPLE,8.55593,76.94368
s920,UNIVERSITY COLLEGE PALAYAM,8.50249,76.95036
s922,PTP NAGAR 4(TVM 38),8.51117,76.99377
s923,PTP NAGAR 3,8.51328,76.99121
s924,PTP NAGAR 2(CANARA BANK),8.51446,76.9893
s925,VETTAMUKKU,8.51038,76.98625
s926,CHITATINKARA,8.51252,76.98333000000001
s927,SASTHAMANGALAM JN,8.512839999999999,76.97099
s928,PALAYAM (KERALA STATE ELECTION COMMISSION ),8.507719999999999,76.95214
s929,PULIMOOD,8.53503,77.01549
s930,MARUTHAMKUZHY JN,8.51309,76.97851999999999
s931,SASTHAMANGALAM HOSPITAL JN,8.51333,76.97343000000001
s932,CHAMUNDESWAI TEMPLE,8.44693,76.9733
s933,MONDIVILA SAW MILL,8.43255,76.96851
s934,THIRUVALLAM SCHOOL,8.44093,76.95788
s935,BSVLP SCHOOL,8.44416,76.97098000000001
s936,LIBRARY jn,8.44542,76.96753000000001
s937,1(KANJIRAVILA TEMPLE  ),8.4457,76.96104
s938,PERAKAM jn,8.44421,76.9789
s939,PERAKAM 1,8.4408,76.97754
s940,PAPPANCHANI jn,8.43881,76.97575
s941,PAPPANCHANI 2,8.43735,76.97336
s942,PAPPANCHANI 1,8.43556,76.97180999999999
s943,VANDITHADAM2(KAVITHA AUDITORIUM ),8.432739999999999,76.97041999999999
s944,VANDYTHADAM jn,8.430860000000001,76.97048000000001
s945,PACHALLOOR  PALLY,8.43348,76.96406
s946,MANACAUD2,8.476239999999999,76.94802
s947,PLAVIILA,8.41002,77.05171
s948,VAZHIMUKKU 2,8.41638,77.05157
s949,THYKA PALLI,8.42257,77.04914000000001
s950,PANAGODU,8.40231,76.99459
s951,KOLYOOR SCOCITY,8.41474,76.98585
s952,KOLYOOR JN,8.41743,76.98563
s953,MELE KOLYOOR,8.418280000000001,76.98419
s957,THYKADU PETROL PUMP,8.66521,76.91149
s958,PIRAPANKODU,8.65784,76.92028
s959,LMS HSS,8.59416,76.95007
s960,KOTTAMUKAL,8.552669999999999,76.94295
s961,NALAMCHIRA STEPS,8.548630000000001,76.94315
s964,VETT ROAD,8.58325,76.86236
s965,PUBLIC PARK,8.55055,76.87708
s967,KUZHIVLA,8.52283,76.89234
s968,LORDS HOSPITAL,8.50544,76.90954
s969,IMA,8.49955,76.91553
s970,SHYAM MOTERS,8.48192,76.93243000000001
s973,PADINJARE NADA,8.48276,76.94192
s974,VAZHAPALLI,8.48069,76.942